City,Cloudiness,Country,Date,Humidity,Lat,Lng,Max Temp,Wind Speed
rikitea,7,PF,1593751588,69,-23.12,-134.97,71.09600000000005,8.84
cidreira,1,BR,1593751589,82,-30.18,-50.21,45.95,5.1
carnarvon,0,AU,1593751589,22,-24.87,113.63,86.0,6.7
boa vista,82,BR,1593751589,78,2.82,-60.67,80.6,1.0
castro,0,BR,1593751589,86,-24.79,-50.01,40.838000000000044,0.58
new norfolk,100,AU,1593751590,85,-42.78,147.06,51.008,0.89
port alfred,15,ZA,1593751590,70,-33.59,26.89,62.00600000000003,3.58
butaritari,79,KI,1593751590,67,3.07,172.79,83.39000000000001,4.27
sharkan,19,RU,1593751591,78,57.3,53.87,68.0,0.45
cherskiy,100,RU,1593751591,70,68.75,161.3,48.38000000000004,1.87
brigantine,1,US,1593751591,73,39.41,-74.36,78.00800000000001,2.1
dingle,99,PH,1593751591,60,11.0,122.67,89.31200000000005,1.48
chilliwack,75,CA,1593751592,93,49.17,-121.94,57.2,2.6
bathsheba,20,BB,1593751592,69,13.22,-59.52,82.4,9.3
ribeira grande,0,PT,1593751592,80,38.52,-28.7,67.37000000000006,3.81
punta arenas,100,CL,1593751593,94,-53.15,-70.92,33.8,3.6
yuncheng,97,CN,1593751593,39,35.02,110.99,91.59800000000003,3.64
tasiilaq,0,GL,1593751594,65,65.61,-37.64,46.4,1.27
qaanaaq,3,GL,1593751594,70,77.48,-69.36,40.1,1.41
dzaoudzi,90,YT,1593751594,65,-12.79,45.27,77.0,4.1
broken hill,40,AU,1593751418,47,-31.95,141.43,59.0,8.7
busselton,0,AU,1593751595,48,-33.65,115.33,62.99600000000005,4.69
kapaa,1,US,1593751382,69,22.08,-159.32,80.6,6.2
yellowknife,75,CA,1593751203,68,62.46,-114.35,64.4,2.6
boguchany,0,RU,1593751596,27,58.38,97.45,93.39800000000002,3.78
nikolskoye,75,RU,1593751596,77,59.7,30.79,68.0,5.0
codrington,66,AU,1593751596,68,-38.27,141.97,50.72000000000006,8.13
son la,100,VN,1593751597,77,21.32,103.9,83.73200000000001,1.23
zaraza,12,VE,1593751597,95,9.35,-65.32,72.82400000000001,1.52
saint george,1,US,1593751516,17,37.1,-113.58,89.6,1.5
luganville,75,VU,1593751598,65,-15.53,167.17,80.6,4.1
progress,75,US,1593751598,54,40.29,-76.83,80.6,2.1
tuatapere,100,NZ,1593751598,83,-46.13,167.68,39.00200000000008,1.34
victoria,100,HK,1593751303,74,22.29,114.16,89.99600000000005,4.92
tuktoyaktuk,90,CA,1593751599,100,69.45,-133.04,39.2,6.7
ongandjera,0,NA,1593751599,43,-17.88,15.07,53.708000000000006,4.5
kabo,98,CF,1593751599,95,7.7,18.63,70.142,2.1
bosaso,51,SO,1593751600,39,11.28,49.18,91.88600000000007,9.69
maningrida,38,AU,1593751600,60,-12.07,134.27,83.57000000000006,5.75
saint-augustin,15,CA,1593751600,95,51.23,-58.65,42.35,3.28
vao,60,NC,1593751601,70,-22.67,167.48,68.72000000000006,7.4
aklavik,90,CA,1593751327,87,68.22,-135.01,44.6,5.7
bethel,78,US,1593751321,89,41.37,-73.41,71.00600000000003,2.51
cordeiro,77,BR,1593751601,87,-22.03,-42.36,59.21600000000001,0.7
saskylakh,0,RU,1593751602,39,71.92,114.08,65.984,6.25
verkhniye kigi,27,RU,1593751602,63,55.41,58.6,66.32600000000009,2.34
ancud,100,CL,1593751602,93,-41.87,-73.82,46.004000000000055,3.1
geraldton,0,AU,1593751603,40,-28.77,114.6,69.8,11.3
georgetown,20,MY,1593751603,74,5.41,100.34,86.0,3.6
atuona,5,PF,1593751604,78,-9.8,-139.03,80.85200000000007,11.75
hilo,40,US,1593751580,65,19.73,-155.09,80.6,3.1
pevek,24,RU,1593751604,63,69.7,170.31,44.90600000000003,8.13
puerto ayora,46,EC,1593751605,88,-0.74,-90.35,69.99800000000002,1.34
huarmey,41,PE,1593751605,85,-10.07,-78.15,59.306000000000026,2.18
kodiak,1,US,1593751605,42,57.79,-152.41,66.2,2.6
ushuaia,90,AR,1593751580,100,-54.8,-68.3,28.4,3.1
havelock,1,US,1593751434,88,34.88,-76.9,75.2,1.19
kupino,84,RU,1593751606,89,54.37,77.3,62.041999999999994,4.19
itambacuri,100,BR,1593751606,87,-18.03,-41.69,68.558,1.6
port elizabeth,75,ZA,1593751607,67,-33.92,25.57,60.8,8.7
taicheng,18,CN,1593751607,51,38.73,113.23,74.55200000000008,3.43
bozova,5,TR,1593751607,32,37.36,38.53,84.2,4.6
te anau,100,NZ,1593751608,80,-45.42,167.72,44.024000000000015,1.37
albany,82,US,1593751527,100,42.6,-73.97,69.99800000000002,1.88
avarua,27,CK,1593751608,88,-21.21,-159.78,77.0,2.1
augustow,73,PL,1593751609,83,53.84,22.98,62.63600000000007,1.93
lagoa,3,PT,1593751609,83,39.05,-27.98,67.04600000000005,5.34
ames,1,US,1593751509,88,42.03,-93.62,75.00200000000008,1.5
ruwi,16,OM,1593751609,84,23.6,58.55,87.8,3.1
sao joao da barra,97,BR,1593751610,80,-21.64,-41.05,66.93800000000005,1.12
jaicos,72,BR,1593751610,48,-7.36,-41.14,69.99800000000002,2.15
vila,9,PT,1593751610,90,42.03,-8.16,48.00200000000008,0.89
grindavik,75,IS,1593751610,87,63.84,-22.43,46.4,3.1
hambantota,40,LK,1593751611,88,6.12,81.12,82.4,5.1
coquimbo,0,CL,1593751611,93,-29.95,-71.34,51.8,1.0
mataura,100,NZ,1593751612,83,-46.19,168.86,39.00200000000008,1.34
saint-philippe,40,RE,1593751612,64,-21.36,55.77,69.8,2.1
lata,2,PT,1593751612,89,40.16,-8.33,51.008,1.49
cape town,65,ZA,1593751254,100,-33.93,18.42,48.00200000000008,1.5
umm lajj,0,SA,1593751613,31,25.02,37.27,89.67200000000004,2.46
juba,82,SS,1593751613,91,4.85,31.58,70.79000000000002,0.89
jalingo,49,NG,1593751614,89,8.88,11.37,75.83000000000004,1.93
bluff,100,NZ,1593751614,83,-46.6,168.33,39.00200000000008,1.34
punta alta,97,AR,1593751614,70,-38.88,-62.07,46.22000000000006,6.32
hermanus,48,ZA,1593751614,73,-34.42,19.23,56.80400000000005,2.19
kasiri,100,SL,1593751615,92,8.94,-13.11,74.82200000000003,1.59
kahului,51,US,1593751554,85,20.89,-156.47,73.99400000000007,4.92
araouane,0,ML,1593751615,13,18.9,-3.53,88.62800000000007,1.53
bambous virieux,40,MU,1593751616,64,-20.34,57.76,73.99400000000007,6.2
thompson,75,CA,1593751351,88,55.74,-97.86,66.2,4.1
bud,0,US,1593751616,87,39.45,-86.18,73.99400000000007,2.33
novyy urengoy,100,RU,1593751617,89,66.08,76.63,60.17000000000006,1.91
pokaran,30,IN,1593751617,37,26.92,71.92,99.71600000000001,6.96
shache,34,CN,1593751618,11,38.42,77.24,93.21800000000009,5.14
ahuimanu,20,US,1593751618,54,21.44,-157.84,82.4,4.6
vaini,20,TO,1593751619,69,-21.2,-175.2,73.4,3.1
nemuro,20,JP,1593751619,72,43.32,145.57,66.2,3.6
asau,3,RO,1593751619,73,46.43,26.4,73.00400000000005,1.21
jalu,0,LY,1593751619,43,29.03,21.55,78.51200000000006,3.59
cabo san lucas,5,MX,1593751533,78,22.89,-109.91,80.00600000000003,3.1
leningradskiy,64,RU,1593751620,56,69.38,178.42,50.018000000000086,2.55
bredasdorp,2,ZA,1593751620,81,-34.53,20.04,51.8,2.6
karoi,0,ZW,1593751621,87,-16.81,29.69,48.254000000000055,1.63
barrow,1,US,1593751621,86,71.29,-156.79,39.2,8.7
kuito,17,AO,1593751621,70,-12.38,16.93,48.182000000000016,2.07
lebu,100,CL,1593751621,82,-37.62,-73.65,49.01000000000008,5.17
vestmanna,99,FO,1593751622,81,62.16,-7.17,42.8,2.6
chuy,35,UY,1593751622,87,-33.7,-53.46,42.76400000000003,3.42
vila velha,90,BR,1593751371,88,-20.33,-40.29,68.0,0.5
sangar,36,RU,1593751623,50,63.92,127.47,67.62200000000004,8.27
chicama,84,PE,1593751623,81,-7.84,-79.15,61.610000000000085,1.35
hithadhoo,99,MV,1593751623,66,-0.6,73.08,84.29000000000002,1.98
qeshm,20,IR,1593751624,67,26.96,56.27,95.0,5.1
lazaro cardenas,94,MX,1593751624,82,17.96,-102.2,79.358,0.87
meadow lake,40,US,1593751511,26,34.8,-106.54,82.4,5.7
mulanje,3,MW,1593751624,80,-16.03,35.5,58.424000000000014,1.3
yumen,38,CN,1593751625,12,40.28,97.2,88.43000000000004,4.72
perpignan,75,FR,1593751625,72,42.75,2.75,64.99400000000007,5.7
nome,90,US,1593751625,100,64.5,-165.41,46.99400000000007,3.1
kununurra,11,AU,1593751626,29,-15.77,128.73,91.4,7.2
kruisfontein,23,ZA,1593751626,84,-34.0,24.73,50.73800000000004,4.19
talnakh,0,RU,1593751626,37,69.49,88.4,68.0,6.0
souillac,40,MU,1593751627,64,-20.52,57.52,71.6,6.2
gemena,25,CD,1593751627,94,3.25,19.77,69.65600000000003,0.69
kuching,40,MY,1593751627,70,1.55,110.33,89.6,2.6
tanout,0,NE,1593751628,42,14.97,8.89,87.33200000000002,4.46
mackay,90,AU,1593751628,64,-21.15,149.2,75.99199999999999,5.7
east london,1,ZA,1593751629,62,-33.02,27.91,57.2,6.7
dubti,49,ET,1593751629,35,11.74,41.09,91.36400000000003,7.3
suhbaatar,11,MN,1593751630,38,50.23,106.21,81.96800000000009,2.17
monrovia,97,LR,1593751630,85,6.3,-10.8,76.78399999999999,4.23
new deer,100,GB,1593751630,87,57.51,-2.19,50.0,2.6
sisimiut,0,GL,1593751631,74,66.94,-53.67,46.22000000000006,5.72
gwadar,49,PK,1593751631,70,25.12,62.33,87.674,2.12
sao filipe,15,CV,1593751631,84,14.9,-24.5,74.37200000000004,3.77
eyl,35,SO,1593751631,46,7.98,49.82,84.12800000000007,15.39
koungou,90,YT,1593751632,65,-12.73,45.2,77.0,4.1
norman wells,75,CA,1593751632,71,65.28,-126.83,53.6,3.6
tiksi,100,RU,1593751632,90,71.69,128.87,35.52800000000006,6.09
visakhapatnam,75,IN,1593751633,84,17.69,83.21,86.0,1.5
port blair,100,IN,1593751633,77,11.67,92.75,84.092,7.32
mar del plata,90,AR,1593751633,100,-38.0,-57.56,48.992,3.1
torbay,90,CA,1593751385,100,47.67,-52.73,50.0,5.7
jamestown,1,US,1593751467,68,42.1,-79.24,71.6,3.6
khatanga,100,RU,1593751634,66,71.97,102.5,57.758,4.2
longyearbyen,75,SJ,1593751634,80,78.22,15.64,41.0,4.6
necochea,18,AR,1593751634,98,-38.55,-58.74,39.992,0.45
ponta do sol,75,PT,1593751635,77,32.67,-17.1,69.8,5.7
kaeo,46,NZ,1593751635,50,-35.1,173.78,55.99400000000007,0.89
awbari,0,LY,1593751635,19,26.59,12.78,76.26200000000006,1.3
provideniya,45,RU,1593751636,66,64.38,-173.3,53.6,6.0
santa vitoria do palmar,50,BR,1593751636,84,-33.52,-53.37,44.582000000000015,3.51
port hardy,75,CA,1593751636,71,50.7,-127.42,55.4,3.6
mandalgovi,3,MN,1593751637,40,45.76,106.27,71.942,2.07
dikson,0,RU,1593751637,73,73.51,80.55,46.65200000000008,3.2
honningsvag,75,NO,1593751637,75,70.98,25.97,46.4,5.1
matara,97,LK,1593751637,79,5.95,80.54,83.31800000000008,5.21
palembang,75,ID,1593751638,70,-2.92,104.75,86.0,4.1
upernavik,0,GL,1593751638,83,72.79,-56.15,37.022000000000034,2.23
makakilo city,1,US,1593751638,54,21.35,-158.09,84.2,3.6
faanui,1,PF,1593751639,81,-16.48,-151.75,80.49199999999999,8.15
college,40,US,1593751417,37,64.86,-147.8,68.0,2.6
binzhou,79,CN,1593751639,55,37.37,118.02,76.37000000000006,5.86
gold coast,0,AU,1593751503,41,-28.0,153.43,75.99199999999999,5.7
karratha,44,AU,1593751640,24,-20.74,116.85,84.38000000000004,10.83
port moresby,40,PG,1593751640,58,-9.44,147.18,87.8,7.7
madimba,20,TZ,1593751640,88,-10.4,40.33,69.8,8.7
airai,26,TL,1593751640,68,-8.93,125.41,69.35,2.71
flinders,23,AU,1593751641,45,-34.58,150.86,64.00400000000005,5.36
pedernales,92,DO,1593751641,69,18.04,-71.74,81.30200000000008,1.97
nalut,0,LY,1593751641,25,30.33,10.85,78.92600000000009,4.42
hobart,75,AU,1593751622,61,-42.88,147.33,51.008,4.1
sitka,20,US,1593751642,38,57.05,-135.33,73.4,1.5
soyo,4,AO,1593751642,88,-6.13,12.37,71.15,2.56
nizhniy tsasuchey,87,RU,1593751642,31,50.52,115.13,83.984,2.48
san miguel,89,SV,1593751643,89,13.48,-88.18,71.33000000000004,1.12
tenango,88,MX,1593751643,59,18.65,-98.18,66.99199999999999,1.34
raudeberg,99,NO,1593751643,92,61.99,5.14,44.00600000000003,5.18
xam nua,100,LA,1593751643,82,20.42,104.04,79.75400000000005,0.62
edgewater,75,US,1593751644,88,28.99,-80.9,78.99800000000002,1.5
mahebourg,40,MU,1593751644,64,-20.41,57.7,71.6,6.2
orotukan,100,RU,1593751644,76,62.27,151.7,49.13600000000007,3.63
cap malheureux,0,MU,1593751645,62,-19.98,57.61,73.99400000000007,5.36
hasaki,75,JP,1593751645,65,35.73,140.83,80.00600000000003,5.1
vostok,0,RU,1593751645,39,46.49,135.88,75.2,3.12
portree,100,GB,1593751645,91,57.41,-6.19,46.99400000000007,4.02
ossora,100,RU,1593751646,94,59.24,163.07,49.71200000000006,4.66
murray bridge,40,AU,1593751646,82,-35.12,139.27,53.00600000000003,2.24
nsukka,100,NG,1593751646,100,6.86,7.39,70.73600000000008,2.34
esperance,90,AU,1593751365,77,-33.87,121.9,59.0,2.1
jahazpur,35,IN,1593751647,34,25.62,75.28,101.67800000000007,5.75
constitucion,74,CL,1593751647,73,-35.33,-72.42,49.17200000000004,1.35
iracoubo,61,GF,1593751647,88,5.48,-53.2,77.64800000000002,3.24
port lincoln,43,AU,1593751515,66,-34.73,135.87,56.768000000000086,7.65
san patricio,100,MX,1593751648,71,19.22,-104.7,79.484,1.15
kanashevo,0,RU,1593751648,59,55.22,62.06,64.4,2.0
sawakin,41,SD,1593751649,30,19.11,37.33,92.71400000000003,2.16
olinda,40,BR,1593751465,94,-8.01,-34.86,75.2,1.5
labuhan,24,ID,1593751649,61,-6.88,112.21,85.78399999999999,1.98
klaksvik,99,FO,1593751650,81,62.23,-6.59,42.8,2.6
bengkulu,96,ID,1593751650,65,-3.8,102.27,86.19800000000002,2.75
kologriv,21,RU,1593751650,75,58.83,44.32,66.79400000000007,1.7
jumla,7,NP,1593751650,84,29.27,82.18,78.99800000000002,1.34
heemskerk,56,NL,1593751651,78,52.51,4.65,57.992,2.45
port hawkesbury,90,CA,1593751652,100,45.62,-61.35,60.008,1.5
san quintin,0,MX,1593751652,81,30.48,-115.95,64.5260000000001,4.04
luwuk,88,ID,1593751652,82,-0.95,122.79,77.43200000000002,4.16
southampton,82,GB,1593751652,75,50.9,-1.4,53.00600000000003,1.34
general roca,40,AR,1593751653,87,-39.03,-67.58,42.8,2.4
haines junction,0,CA,1593751446,28,60.75,-137.51,66.27200000000003,1.15
riyadh,0,SA,1593751635,43,24.69,46.72,89.6,3.07
cayenne,23,GF,1593751445,100,4.93,-52.33,75.2,2.6
porto novo,40,BJ,1593751654,88,6.5,2.6,78.8,5.1
lavrentiya,37,RU,1593751654,76,65.58,-171.0,49.29800000000002,2.44
dax,12,FR,1593751654,100,43.75,-1.17,60.008,0.5
shimoda,75,JP,1593751655,73,34.67,138.95,75.2,2.6
teknaf,80,BD,1593751655,72,20.86,92.31,87.89000000000001,5.48
calvinia,39,ZA,1593751655,61,-31.47,19.78,42.71000000000008,1.39
ambulu,97,ID,1593751655,61,-8.35,113.61,84.03800000000004,4.36
divnogorsk,53,RU,1593751656,57,55.96,92.36,80.6,3.0
roald,75,NO,1593751656,81,62.58,6.13,46.4,3.6
omboue,71,GA,1593751656,92,-1.57,9.26,71.65400000000005,2.29
puerto del rosario,3,ES,1593751657,78,28.5,-13.86,71.6,6.7
olafsvik,22,IS,1593751657,73,64.89,-23.71,50.66600000000001,2.14
asmar,0,AF,1593751657,13,35.03,71.36,92.73200000000001,1.13
bilibino,99,RU,1593751657,64,68.05,166.44,48.23600000000007,5.14
poso,83,ID,1593751658,68,-1.4,120.75,83.82200000000003,0.29
moose factory,20,CA,1593751658,87,51.26,-80.61,55.4,2.1
henties bay,0,NA,1593751659,31,-22.12,14.28,68.46800000000009,5.19
krasnotorka,4,UA,1593751659,66,48.68,37.53,75.63200000000002,3.14
kavieng,48,PG,1593751659,65,-2.57,150.8,84.74000000000002,2.21
clyde river,1,CA,1593751659,75,70.47,-68.59,46.4,4.6
estrela,29,BR,1593751660,99,-28.06,-50.94,31.874000000000013,0.5
vuktyl,100,RU,1593751660,71,63.86,57.31,55.85,3.39
yerbogachen,60,RU,1593751660,37,61.28,108.01,75.29000000000002,4.51
ballina,0,AU,1593751661,44,-28.87,153.57,77.0,3.6
moron,4,AR,1593751661,91,-34.65,-58.62,46.004000000000055,0.89
itarema,83,BR,1593751661,88,-2.92,-39.92,75.81200000000005,3.97
katsuura,75,JP,1593751661,69,35.13,140.3,80.00600000000003,1.0
isiolo,15,KE,1593751662,65,0.35,37.58,67.24400000000007,2.68
tocopilla,18,CL,1593751662,63,-22.09,-70.2,58.658,0.98
port hedland,75,AU,1593751662,14,-20.32,118.57,87.8,9.8
balgazyn,13,RU,1593751662,38,51.0,95.2,79.98800000000004,3.16
kapoeta,100,SS,1593751663,79,4.77,33.59,74.13800000000005,1.74
camana,4,PE,1593751663,76,-16.62,-72.71,58.53200000000002,2.26
arraial do cabo,97,BR,1593751663,70,-22.97,-42.03,67.56800000000008,2.16
waitakere,38,NZ,1593751664,66,-36.92,174.66,55.99400000000007,2.6
isangel,40,VU,1593751664,69,-19.55,169.27,75.2,2.6
guerrero negro,0,MX,1593751565,74,27.98,-114.06,67.82000000000006,4.34
narsaq,100,GL,1593751664,43,60.92,-46.05,51.8,2.1
dovers,23,VC,1593751665,77,12.88,-61.18,81.89600000000004,9.37
lasa,90,IT,1593751665,100,46.62,10.7,57.00200000000008,1.5
durham,40,US,1593751665,88,36.03,-78.87,71.99600000000005,1.44
manavalakurichi,75,IN,1593751666,74,8.13,77.3,84.2,1.0
oeiras do para,78,BR,1593751442,93,-2.0,-49.85,73.77800000000006,1.53
douentza,0,ML,1593751666,43,15.0,-2.95,89.2760000000001,3.55
beauvais,17,FR,1593751667,93,49.42,2.0,51.998000000000026,3.6
pochutla,83,MX,1593751667,87,15.74,-96.47,75.99199999999999,1.02
severo-kurilsk,51,RU,1593751667,75,50.68,156.12,48.00200000000008,6.73
sayyan,86,YE,1593751667,34,15.17,44.32,71.6,1.49
orlik,1,RU,1593751668,30,52.52,99.83,78.63800000000005,0.46
anan,75,JP,1593751668,88,33.92,134.65,71.6,6.2
campestre,43,BR,1593751668,61,-21.71,-46.25,48.97400000000001,0.74
les cayes,40,HT,1593751669,81,18.2,-73.75,79.19600000000005,1.74
vanimo,0,PG,1593751669,66,-2.67,141.3,85.35200000000007,4.05
chokurdakh,100,RU,1593751669,88,70.63,147.92,39.398000000000025,7.53
abbeville,57,FR,1593751670,71,50.1,1.83,57.00200000000008,4.22
leshukonskoye,2,RU,1593751670,70,64.9,45.76,64.4,1.53
galeana,54,MX,1593751565,56,24.83,-100.07,64.99400000000007,0.66
gat,0,IL,1593751496,68,31.61,34.76,73.99400000000007,0.99
oyama,75,JP,1593751671,64,36.3,139.8,84.99199999999999,7.7
cockburn town,65,TC,1593751671,81,21.46,-71.14,83.26400000000004,7.84
mayo,1,US,1593751671,74,38.89,-76.51,80.6,3.41
srednekolymsk,100,RU,1593751672,71,67.45,153.68,47.75,2.22
halmstad,27,SE,1593751672,71,56.67,12.86,60.008,3.1
kamaishi,75,JP,1593751672,51,39.27,141.88,82.4,1.5
voh,98,NC,1593751673,54,-20.97,164.7,72.66200000000006,3.58
conceicao do araguaia,60,BR,1593751673,73,-8.26,-49.26,71.6,1.0
egvekinot,38,RU,1593751673,72,66.32,-179.17,45.06800000000008,2.35
inirida,100,CO,1593751673,97,3.87,-67.92,73.20200000000008,1.01
husavik,90,IS,1593751674,62,66.04,-17.34,35.6,1.5
lethem,100,GY,1593751674,88,3.38,-59.8,74.984,2.89
fortuna,40,US,1593751675,93,40.6,-124.16,55.004000000000055,3.6
nishihara,75,JP,1593751675,70,26.18,127.76,87.8,5.7
imbituba,20,BR,1593751675,66,-28.24,-48.67,53.6,1.0
srivardhan,86,IN,1593751675,78,18.03,73.02,84.48800000000004,4.24
at-bashi,8,KG,1593751676,29,41.17,75.81,67.29800000000003,2.18
loviisa,14,FI,1593751676,96,60.46,26.23,59.0,5.24
sioux lookout,20,CA,1593751676,77,50.1,-91.92,64.4,0.29
aykhal,75,RU,1593751676,58,66.0,111.5,59.0,6.0
broome,1,US,1593751677,53,42.25,-75.83,75.2,3.6
cuiluan,35,CN,1593751677,41,47.72,128.65,86.59400000000008,1.35
emerald,18,AU,1593751677,36,-23.53,148.17,78.99800000000002,2.6
awjilah,0,LY,1593751677,41,29.11,21.29,78.17000000000006,3.25
lorengau,1,PG,1593751678,75,-2.02,147.27,83.96600000000001,4.84
kalang,63,PH,1593751678,62,5.92,121.36,85.424,2.82
francavilla al mare,1,IT,1593751678,94,42.42,14.29,71.99600000000005,1.5
iberia,1,US,1593751679,94,29.95,-91.75,84.2,3.1
vila franca do campo,20,PT,1593751679,87,37.72,-25.43,59.0,1.5
xuanzhou,79,CN,1593751679,81,30.95,118.76,82.34600000000005,4.26
skjervoy,40,NO,1593751680,87,70.03,20.97,46.4,1.5
pisco,90,PE,1593751680,82,-13.7,-76.22,62.6,2.6
havoysund,75,NO,1593751680,75,71.0,24.66,46.4,5.1
praia,75,CV,1593751680,83,14.92,-23.51,77.0,4.1
naze,75,JP,1593751681,94,28.37,129.48,82.4,4.1
maceio,40,BR,1593751571,100,-9.67,-35.74,71.6,2.1
the valley,40,AI,1593751682,78,18.22,-63.06,82.99400000000007,4.1
byron bay,2,AU,1593751298,44,-28.65,153.62,75.99199999999999,3.6
tambacounda,100,SN,1593751682,76,13.75,-13.76,76.892,3.8
tarko-sale,99,RU,1593751682,89,64.92,77.78,64.00400000000005,7.66
honiara,75,SB,1593751649,88,-9.43,159.95,80.6,2.6
karasjok,84,NO,1593751683,71,69.47,25.51,50.0,10.3
mount gambier,40,AU,1593751683,57,-37.83,140.77,51.8,8.2
saint-joseph,40,RE,1593751683,64,-21.37,55.62,69.8,2.1
taoudenni,0,ML,1593751684,11,22.68,-3.98,91.13000000000004,3.73
luderitz,0,NA,1593751684,33,-26.65,15.16,57.2,1.5
namtsy,40,RU,1593751684,59,62.72,129.67,66.2,6.0
tonantins,100,BR,1593751684,96,-2.87,-67.8,72.71600000000001,0.5
aswan,0,EG,1593751685,16,24.09,32.91,88.28600000000007,1.39
bongandanga,10,CD,1593751685,93,1.5,21.05,71.15,0.32
pandan,81,PH,1593751685,72,14.05,124.17,85.69400000000007,2.32
madison,1,US,1593751164,94,34.73,-86.57,75.99199999999999,1.38
deputatskiy,100,RU,1593751686,72,69.3,139.9,45.48200000000001,6.38
majenang,99,ID,1593751686,78,-7.3,108.76,81.96800000000009,2.2
bystrice pod hostynem,100,CZ,1593751686,90,49.4,17.67,62.99600000000005,2.38
panama city,100,PA,1593751501,88,8.99,-79.52,78.8,1.5
fevik,82,NO,1593751687,76,58.38,8.68,53.00600000000003,1.5
carballo,23,ES,1593751687,90,43.21,-8.69,51.008,0.37
ures,19,MX,1593751688,48,29.43,-110.4,87.99800000000002,2.68
weymouth,40,US,1593751688,69,42.22,-70.94,77.0,3.1
san policarpo,99,PH,1593751688,63,12.18,125.51,86.63000000000004,3.45
mayumba,7,GA,1593751688,91,-3.43,10.66,70.71800000000009,1.51
alekseyevka,0,RU,1593751689,65,50.63,38.69,72.842,1.66
magdagachi,73,RU,1593751689,29,53.45,125.8,86.99000000000002,4.51
pozo colorado,0,PY,1593751689,95,-23.49,-58.8,45.82400000000001,2.58
nagato,90,JP,1593751690,94,34.38,131.2,69.8,2.6
inongo,90,CD,1593751690,82,-1.95,18.27,68.81000000000009,0.66
primorsko-akhtarsk,0,RU,1593751690,55,46.05,38.17,78.33200000000002,4.85
ixtapa,90,MX,1593751691,79,20.7,-105.2,84.2,2.6
bilma,50,NE,1593751691,15,18.69,12.92,83.46200000000006,5.65
dapaong,95,TG,1593751691,83,10.86,0.2,76.22600000000008,3.54
pacific grove,1,US,1593751691,82,36.62,-121.92,57.992,3.6
wagar,39,SD,1593751692,53,16.15,36.2,85.11800000000008,8.83
andijon,0,UZ,1593751692,23,40.78,72.34,77.0,3.0
iranshahr,2,IR,1593751692,39,27.2,60.68,96.8,2.24
buraydah,0,SA,1593751692,24,26.33,43.98,91.4,2.1
phalaborwa,0,ZA,1593751693,58,-23.94,31.14,59.0,2.6
marysville,90,US,1593751455,87,48.05,-122.18,57.992,2.1
kaka,0,TM,1593751693,15,37.35,59.61,83.08399999999999,3.02
zyryanka,100,RU,1593751694,88,65.75,150.85,44.13200000000002,5.55
lakefield,1,US,1593751694,83,43.68,-95.17,75.99199999999999,1.5
port keats,26,AU,1593751694,36,-14.25,129.55,89.58200000000002,2.54
matagami,1,CA,1593751694,63,49.75,-77.63,66.2,4.1
mnogovershinnyy,93,RU,1593751695,47,53.94,139.92,74.42600000000009,5.9
biak,89,ID,1593751695,85,-0.91,122.88,76.47800000000007,4.89
dearborn heights,20,US,1593751695,64,42.34,-83.27,75.2,2.6
pacifica,90,US,1593751696,82,37.61,-122.49,57.992,3.6
koslan,0,RU,1593751696,70,63.46,48.9,64.04000000000002,2.26
zonguldak,0,TR,1593751696,63,41.25,31.83,72.66200000000006,0.68
illapel,1,CL,1593751696,69,-31.63,-71.17,52.628000000000064,0.33
gizo,100,SB,1593751697,83,-8.1,156.84,80.65400000000005,9.15
kenora,20,CA,1593751697,54,49.82,-94.43,78.8,3.1
kushmurun,100,KZ,1593751697,66,52.45,64.63,62.438000000000045,4.67
linjiang,26,CN,1593751697,36,41.81,126.91,88.77200000000003,0.9
sibolga,97,ID,1593751698,61,1.74,98.78,87.27800000000006,2.08
abramovka,0,RU,1593751698,68,51.19,41.02,72.51800000000009,1.89
tilichiki,100,RU,1593751698,92,60.47,166.1,45.06800000000008,6.54
marawi,87,PH,1593751699,83,8.0,124.29,82.00400000000005,3.13
paradise valley,1,US,1593751699,36,33.53,-111.94,93.99199999999999,4.92
plettenberg bay,13,ZA,1593751700,80,-34.05,23.37,54.788000000000046,3.19
ketchikan,90,US,1593751700,81,55.34,-131.65,53.6,4.1
nelson bay,1,AU,1593751700,55,-32.72,152.15,64.99400000000007,3.1
rocha,82,UY,1593751700,86,-34.48,-54.33,41.342,3.69
yermakovskoye,44,RU,1593751701,65,53.28,92.4,77.16200000000006,3.24
kapuskasing,75,CA,1593751701,94,49.42,-82.43,68.0,2.6
karasuk,81,RU,1593751701,68,53.74,78.04,70.84400000000008,3.82
fort nelson,90,CA,1593751702,87,58.81,-122.7,57.2,5.7
zorritos,65,PE,1593751702,75,-3.68,-80.68,71.07800000000006,2.46
tukuyu,98,TZ,1593751702,95,-9.25,33.65,54.266000000000005,1.74
erzin,0,TR,1593751702,87,36.96,36.2,80.00600000000003,1.1
saint anthony,1,US,1593751703,65,45.02,-93.22,78.99800000000002,2.05
solhan,1,TR,1593751703,46,38.96,41.03,71.02400000000002,2.82
jilib,100,SO,1593751703,72,0.49,42.79,78.53000000000004,4.58
buriti bravo,0,BR,1593751704,95,-5.84,-43.83,67.80200000000008,0.51
quelimane,20,MZ,1593751704,93,-17.88,36.89,60.8,1.5
indian head,1,US,1593751705,88,38.6,-77.16,75.99199999999999,2.13
nanortalik,100,GL,1593751705,81,60.14,-45.24,41.97200000000004,1.29
kaitangata,96,NZ,1593751705,73,-46.28,169.85,42.008,0.89
lompoc,3,US,1593751432,87,34.64,-120.46,57.2,2.1
aripuana,96,BR,1593751706,80,-9.17,-60.63,73.22000000000006,0.69
sorland,20,NO,1593751706,76,67.67,12.69,50.0,2.7
yulara,31,AU,1593751706,34,-25.24,130.99,66.2,6.2
lambarene,93,GA,1593751706,87,-0.7,10.24,71.58200000000002,1.64
ahipara,37,NZ,1593751707,64,-35.17,173.17,54.266000000000005,2.64
abadiania,19,BR,1593751707,93,-16.2,-48.71,58.92800000000007,1.73
verkhnevilyuysk,55,RU,1593751707,54,63.45,120.32,64.61600000000001,4.9
kamenka,0,RU,1593751708,60,51.32,42.77,75.99199999999999,1.34
cooma,39,AU,1593751708,49,-36.23,149.13,46.4,6.7
teahupoo,20,PF,1593751708,69,-17.83,-149.27,80.6,1.5
ushirombo,18,TZ,1593751708,56,-3.49,31.96,63.71600000000001,2.61
san francisco de becerra,93,HN,1593751709,91,14.63,-86.1,68.21600000000001,0.37
una,92,IN,1593751709,61,20.82,71.03,90.98600000000008,4.65
zhuhai,20,CN,1593751709,74,22.28,113.57,96.00800000000001,5.7
bay roberts,99,CA,1593751709,1,47.6,-53.26,48.992,6.1
sa kaeo,90,TH,1593751710,72,13.81,102.07,86.558,5.14
lerwick,98,GB,1593751710,87,60.15,-1.15,48.2,3.1
lumphat,100,KH,1593751710,94,13.49,106.98,77.32400000000001,1.7
clermont,6,FR,1593751711,93,49.5,2.42,51.998000000000026,3.6
thinadhoo,57,MV,1593751711,65,0.53,72.93,84.47000000000006,2.11
asfi,0,MA,1593751712,88,32.3,-9.24,67.02800000000006,8.26
sao felix do xingu,19,BR,1593751712,78,-6.64,-51.99,70.484,0.43
jega,100,NG,1593751712,64,12.22,4.38,83.26400000000004,6.4
olhao,0,PT,1593751544,55,37.03,-7.84,62.6,3.1
namatanai,32,PG,1593751713,74,-3.67,152.43,82.85,2.55
kavaratti,90,IN,1593751713,74,10.57,72.64,82.4,7.7
kokopo,9,PG,1593751713,72,-4.35,152.26,84.34400000000008,3.32
aasiaat,21,GL,1593751714,86,68.71,-52.87,35.79800000000002,1.23
eureka,22,US,1593751631,86,40.8,-124.16,55.004000000000055,0.45
chimbote,33,PE,1593751714,87,-9.09,-78.58,60.11600000000001,2.1
campbell river,75,CA,1593751637,71,50.02,-125.24,57.2,3.1
uniontown,1,US,1593751703,69,39.9,-79.72,73.4,0.54
puerto baquerizo moreno,17,EC,1593751715,90,-0.9,-89.6,69.11600000000001,3.38
luau,0,AO,1593751715,53,-10.71,22.22,54.14000000000002,2.34
haimen,40,CN,1593751716,83,23.19,116.61,82.4,3.0
akdepe,54,TM,1593751716,27,42.06,59.38,78.8,6.2
bihoro,40,JP,1593751716,72,43.82,144.1,66.2,4.1
northam,90,GB,1593751717,88,51.03,-4.22,57.992,1.79
kokkinokhoma,9,GR,1593751717,83,40.93,24.3,78.99800000000002,1.0
alofi,96,NU,1593751718,88,-19.06,-169.92,73.4,6.2
gamba,85,GA,1593751718,93,-2.65,10.0,71.13200000000002,1.85
khovu-aksy,74,RU,1593751718,56,51.13,93.6,70.57400000000001,1.61
trelew,3,AR,1593751578,68,-43.25,-65.31,44.024000000000015,4.45
bedesa,36,ET,1593751719,78,8.9,40.78,64.14800000000002,2.61
dispur,75,IN,1593751719,100,26.14,91.79,86.0,0.07
laguna,1,US,1593751720,59,38.42,-121.42,66.2,3.6
berdigestyakh,70,RU,1593751720,43,62.1,126.7,67.38800000000005,6.13
guaratinga,18,BR,1593751720,94,-16.57,-39.57,69.8,1.0
pangnirtung,18,CA,1593751720,62,66.15,-65.71,48.32600000000009,0.63
bonavista,100,CA,1593751721,78,48.65,-53.11,48.00200000000008,1.34
coihaique,20,CL,1593751721,93,-45.58,-72.07,35.6,2.1
jawhar,99,SO,1593751721,67,2.78,45.5,79.08800000000005,8.32
chernyshevskiy,72,RU,1593751722,35,63.01,112.47,69.18800000000005,5.16
rundu,0,NA,1593751722,57,-17.93,19.77,50.0,1.0
abonnema,100,NG,1593751722,91,4.71,6.79,75.61400000000003,2.52
margate,53,GB,1593751723,89,51.38,1.39,59.0,0.89
meulaboh,100,ID,1593751723,64,4.14,96.13,86.19800000000002,1.77
davila,40,PH,1593751723,75,18.47,120.58,89.6,6.2
sola,86,VU,1593751723,82,-13.88,167.55,77.59400000000008,10.91
yonezawa,75,JP,1593751724,57,37.92,140.12,80.6,2.6
manggar,2,ID,1593751724,70,-2.88,108.27,84.7760000000001,6.6
mehamn,75,NO,1593751724,75,71.04,27.85,46.4,5.1
gorontalo,93,ID,1593751724,86,0.54,123.06,79.41200000000006,1.82
copiapo,2,CL,1593751616,87,-27.37,-70.33,53.6,0.5
chapais,1,CA,1593751725,67,49.78,-74.85,60.8,2.6
saint paul,1,US,1593751477,69,44.94,-93.09,78.99800000000002,1.5
ostersund,89,SE,1593751597,93,63.18,14.64,42.8,1.0
tirat karmel,0,IL,1593751726,73,32.76,34.97,75.2,0.5
semirara,60,PH,1593751726,72,12.07,121.4,85.33399999999999,5.47
kiama,25,AU,1593751726,43,-34.68,150.87,64.00400000000005,6.71
ust-maya,81,RU,1593751727,43,60.42,134.53,72.21200000000006,4.13
waingapu,27,ID,1593751727,58,-9.66,120.26,83.174,8.72
hami,25,CN,1593751728,10,42.8,93.45,94.73000000000005,3.86
victor harbor,40,AU,1593751728,72,-35.57,138.62,53.99600000000005,1.79
amambai,0,BR,1593751728,92,-23.1,-55.23,45.194000000000074,2.31
uglich,39,RU,1593751728,85,57.53,38.33,67.78399999999999,1.77
bitung,40,ID,1593751664,70,1.45,125.18,84.2,3.1
salalah,96,OM,1593751729,78,17.02,54.09,82.4,4.73
bubaque,100,GW,1593751730,81,11.28,-15.83,79.23200000000001,2.07
dwarka,7,IN,1593751730,73,22.24,68.97,88.53800000000004,6.41
kyzyl-suu,8,KG,1593751730,51,42.34,78.0,65.066,3.04
matamoros,100,MX,1593751730,71,25.53,-103.25,73.00400000000005,4.07
sretensk,51,RU,1593751731,25,52.25,117.71,88.016,3.13
villiers,0,ZA,1593751731,77,-27.03,28.6,36.842,1.5
rabo de peixe,20,PT,1593751732,87,37.8,-25.58,59.0,1.5
asosa,100,ET,1593751732,100,10.07,34.53,61.141999999999996,0.8
lumding,75,IN,1593751733,79,25.75,93.17,86.0,1.5
tigil,100,RU,1593751733,72,57.8,158.67,51.78200000000002,1.61
bontang,95,ID,1593751569,79,0.13,117.5,82.99400000000007,5.49
kungurtug,63,RU,1593751734,35,50.6,97.52,76.82000000000006,1.67
vanavara,66,RU,1593751734,34,60.34,102.28,84.2,3.08
mayenne,47,FR,1593751734,100,48.33,-0.67,51.8,2.1
pangody,100,RU,1593751735,92,65.85,74.49,59.702000000000076,2.76
blythe,1,US,1593751735,20,33.61,-114.6,95.0,4.6
waw,79,SS,1593751735,90,7.7,28.0,71.56400000000004,0.71
birin,100,NP,1593751735,84,26.89,88.07,74.60600000000002,1.89
severobaykalsk,43,RU,1593751736,44,55.65,109.32,69.60200000000007,1.56
chany,100,RU,1593751736,92,55.31,76.76,61.84400000000007,4.21
arona,0,ES,1593751737,73,28.1,-16.68,73.99400000000007,5.1
colmar,10,FR,1593751737,72,48.08,7.37,60.998000000000026,0.66
hamilton,1,US,1593751651,83,39.18,-84.53,73.99400000000007,1.72
barcelos,0,PT,1593751738,81,41.54,-8.62,55.99400000000007,2.1
porbandar,12,IN,1593751738,69,21.64,69.61,89.16800000000009,5.74
gazanjyk,41,TM,1593751738,14,39.24,55.52,86.684,9.23
jaragua,6,BR,1593751739,86,-15.76,-49.33,62.96000000000008,2.08
evensk,13,RU,1593751739,53,61.95,159.23,57.63200000000002,5.17
cruzeiro do sul,0,BR,1593751739,95,-29.51,-51.99,41.0,1.23
presidencia roque saenz pena,0,AR,1593751739,91,-26.79,-60.44,42.96200000000006,1.66
galveston,75,US,1593751547,79,29.37,-94.97,84.99199999999999,4.6
baiyin,90,CN,1593751740,77,36.56,104.21,69.00800000000001,2.0
inverell,19,AU,1593751741,69,-29.78,151.12,64.00400000000005,3.13
kondopoga,73,RU,1593751741,82,62.21,34.26,62.6,2.0
tautira,20,PF,1593751741,69,-17.73,-149.15,80.6,1.5
salinopolis,3,BR,1593751605,83,-0.61,-47.36,78.62000000000006,4.22
manacapuru,40,BR,1593751496,94,-3.3,-60.62,77.0,1.5
bonthe,100,SL,1593751742,89,7.53,-12.51,75.83000000000004,2.49
fairbanks,1,US,1593751577,32,64.84,-147.72,68.0,3.1
cabatuan,99,PH,1593751743,60,10.88,122.49,89.56400000000004,0.43
taltal,0,CL,1593751743,67,-25.4,-70.48,58.1,1.81
villefranche-de-rouergue,75,FR,1593751743,93,44.33,2.0,57.992,3.1
mitu,100,CO,1593751743,98,1.2,-70.17,72.28399999999999,0.91
kidal,0,ML,1593751744,14,18.44,1.41,83.33600000000007,2.76
sulangan,90,PH,1593751744,69,11.14,123.72,84.11000000000008,1.28
ulaanbaatar,40,MN,1593751744,52,47.91,106.88,69.8,3.0
sol-iletsk,21,RU,1593751744,56,51.16,54.99,76.17200000000004,3.18
ljungby,13,SE,1593751745,87,56.83,13.94,53.00600000000003,2.6
saint-francois,16,FR,1593751745,87,46.42,3.91,55.004000000000055,1.94
bereda,21,ES,1593751745,100,43.27,-7.54,46.004000000000055,0.84
bambanglipuro,91,ID,1593751745,71,-7.95,110.28,82.38200000000002,7.31
sibenik,0,HR,1593751746,54,43.73,15.91,78.8,2.1
okha,100,RU,1593751746,78,53.57,142.95,60.188000000000045,4.09
sur,25,OM,1593751746,70,22.57,59.53,87.89000000000001,3.28
dudinka,0,RU,1593751746,37,69.41,86.18,68.0,6.0
miraflores,40,MX,1593751747,48,19.22,-98.81,66.2,2.6
tezu,100,IN,1593751747,69,27.92,96.17,84.36200000000005,0.93
kandrian,28,PG,1593751747,80,-6.22,149.55,81.158,7.26
dukhovshchina,97,RU,1593751748,93,55.19,32.41,66.308,1.55
padang,76,ID,1593751748,74,-0.95,100.35,84.83000000000004,1.54
shelburne,1,CA,1593751748,68,44.08,-80.2,71.00600000000003,2.1
mezen,1,RU,1593751749,58,65.85,44.24,63.82400000000001,2.12
itoman,75,JP,1593751749,84,26.12,127.67,87.8,5.7
fushun,20,CN,1593751749,54,41.86,123.92,84.2,1.0
karaton,77,ID,1593751750,49,-6.34,106.1,91.4,6.2
ibra,0,OM,1593751750,44,22.69,58.53,90.42800000000007,1.42
